<?xml version="1.0" encoding="utf-8"?>
<data>
	<active>
		<div class="region" title="亜細亜">
			<div class="country" title="中国">
				<!-- 1 -->
				<div class="city" id="r0-c3-cc1" title="安徽">
					<div class="shop" id="r0-c3-cc1-s0">
						<h4>合肥百盛商场一层名表城</h4>
						<p class="address">合肥市淮河路77号</p>
						<p class="contact">电话： (86-551) 6261 6030</p>
						<p class="lat">31.8659162</p>
						<p class="lng">117.28319779999993</p>
					</div>
					<div class="shop" id="r0-c3-cc1-s1">
						<h4>合肥新宇亨得利世界名表中心有限公司</h4>
						<p class="address">合肥市长江东路1104号古井假日酒店818室</p>
						<p class="contact">电话： (86-551) 6267 2580</p>
						<p class="lat">331.864995</p>
						<p class="lng">117.301744</p>
					</div>
				</div>
				
				<!-- 2 -->
				<div class="city" id="r0-c3-cc2" title="北京">
					<div class="shop" id="r0-c3-cc2-s0">
						<h4>依波路（北京）维修部</h4>
						<p class="address">北京市东城区崇文门外大街11号新成文化大厦8层805室</p>
						<p class="contact">电话：(86-10) 6708 3096</p>
						<p class="lat">39.89385534320362</p>
						<p class="lng">116.41825675964355</p>
					</div>
					<div class="shop" id="r0-c3-cc2-s1">
						<h4>北京北亨名表维修中心</h4>
						<p class="address">北京市东城区王府井大街172号丹耀大厦地下一层</p>
						<p class="lat">39.912830501606656</p>
						<p class="lng">116.4116907119751</p>
					</div>
				</div>
				
				<!-- 3 -->
				<div class="city" id="r0-c3-cc3" title="重庆">
					<div class="shop" id="r0-c3-cc3-s0">
						<h4>重庆瑞皇名表维修站</h4>
						<p class="address">重庆市渝中区民权路1号</p>
						<p class="contact">电话: (86-23) 6373 7878</p>
						<p class="lat">29.556851</p>
						<p class="lng">106.57703600000002</p>
					</div>
				</div>
				
				<!-- 4 -->
				<div class="city" id="r0-c3-cc4" title="甘肃">
					<div class="shop" id="r0-c3-cc4-s0">
						<h4>兰州巍雅斯名表眼镜行依波路特约维修站</h4>
						<p class="address">兰州市东方红广场国芳百货北门东侧</p>
						<p class="contact">电话：(86-931) 889 0166</p>
						<p class="contact">传真：(86-931) 8890 881</p>
						<p class="lat">36.052525273855814</p>
						<p class="lng">103.84116411209106</p>
					</div>
				</div>
				
				<!-- 5 -->
				<div class="city" id="r0-c3-cc5" title="广东">
					<div class="shop" id="r0-c3-cc5-s0">
						<h4>依波路品牌专业维修中心</h4>
						<p class="address">广州市天河区天河路385号太古汇一座701室</p>
						<p class="contact">电话：(86-20) 2808 6111</p>
						<p class="lat">23.133372461686072</p>
						<p class="lng">113.33245038986206</p>
					</div>
					<div class="shop" id="r0-c3-cc5-s1">
						<h4>珠海百货广场名表城周玉赞名表维修中心</h4>
						<p class="address">珠海市吉大景山路百货广场二楼</p>
						<p class="contact">电话：(86-756) 335 0570</p>
						<p class="lat">22.25617395551605</p>
						<p class="lng">113.57914924621582</p>
					</div>
					<div class="shop" id="r0-c3-cc5-s2">
						<h4>汕头市亨达利钟表有限公司</h4>
						<p class="address">汕头市金砂路144号（世贸花园正门东侧）</p>
						<p class="contact">电话：(86-754) 8843 8938</p>
						<p class="lat">23.36674494861038</p>
						<p class="lng">116.74360871315002</p>
					</div>
					<div class="shop" id="r0-c3-cc5-s3">
						<h4>佛山百花广场瑞士表坊</h4>
						<p class="address">佛山市祖庙路百花广场四楼</p>
						<p class="contact">电话：(86-757) 8610 0823</p>
						<p class="lat">23.02651645498473</p>
						<p class="lng">113.11172068119049</p>
					</div>
					<div class="shop" id="r0-c3-cc5-s4">
						<h4>佛山市禪城區分秒鐘表維修店</h4>
						<p class="address">佛山市禪城區汾江中路205號首層2號鋪</p>
						<p class="contact">电话：(86-757) 8330 0505</p>
						<p class="lat">23.0169860000</p>
						<p class="lng">113.1082630000</p>
					</div>
					<div class="shop" id="r0-c3-cc5-s5">
						<h4>湛江百吉时间廊表行</h4>
						<p class="address">湛江市霞山区人民大道南42号城市广场一楼</p>
						<p class="contact">电话：(86-759)229 6661</p>
						<p class="lat">21.1983484</p>
						<p class="lng">110.40558620000002</p>
					</div>
					<div class="shop" id="r0-c3-cc5-s6">
						<h4>韶关风度名城依波路专卖店</h4>
						<p class="address">韶关解放路一号风度名城1B062号</p>
						<p class="contact">电话: (86-751) 881 2468</p>
						<p class="lat">24.797925799753525</p>
						<p class="lng">113.60002756118774</p>
					</div>
					<div class="shop">
                        <h4>汕头合胜百货商场</h4>
                        <p class="address">汕头市龙湖区长江路23号（天山路与长江路交界）合胜商场</p>
                        <p class="contact hidden"></p>
                        <p class="lat">23.376332</p>
                        <p class="lng">116.722702</p>
                    </div>
				</div>
				
				<!-- 6 -->
				<div class="city" id="r0-c3-cc6" title="贵州">
					<div class="shop" id="r0-c3-cc6-s0">
						<h4>贵阳市瑞时名表服务中心</h4>
						<p class="address">中华中路117号龙港大厦东区5楼表修堂</p>
						<p class="contact">电话：(86-851) 521 1020</p>
						<p class="lat">26.58217561339595</p>
						<p class="lng">106.71237230300903</p>
					</div>
					<div class="shop" id="r0-c3-cc6-s1">
						<h4>贵阳星力购物广场</h4>
						<p class="address">贵阳市富水南路2号星力购物广场一楼名表中心</p>
						<p class="contact">电话: (86-851) 5827 685</p>
						<p class="lat">26.57714546664565</p>
						<p class="lng">106.71519935131073</p>
					</div>
				</div>
				
				<!-- 7 -->
				<div class="city" id="r0-c3-cc7" title="河北">
					<div class="shop" id="r0-c3-cc7-s0">
						<h4>石家庄仕博名表维修中心</h4>
						<p class="address">石家庄中山路188号北国商城一层A区依波路特约服务站</p>
						<p class="contact">电话: (86-311) 8526 1075</p>
						<p class="lat">38.26883074269917</p>
						<p class="lng">114.68870401382446</p>
					</div>
				</div>
				
				<!-- 8 -->
				<div class="city" id="r0-c3-cc8" title="黑龍江">
					<div class="shop" id="r0-c3-cc8-s0">
						<h4>哈尔滨新一百一楼名表馆维修中心</h4>
						<p class="address">哈尔滨道里区石头道街118号</p>
						<p class="contact">电话: (86) 13936176035 安师傅</p>
						<p class="lat">45.770441</p>
						<p class="lng">126.623704</p>
					</div>
			    </div>
				
				<!-- 9 -->
				<div class="city" id="r0-c3-cc9" title="河南">
					<div class="shop" id="r0-c3-cc9-s0">
						<h4>河南富豪表行郑州新宇三宝店</h4>
						<p class="address">郑州市太康路24号1栋楼1层139号</p>
						<p class="contact">电话： (86-371) 6628 9033</p>
						<p class="lat">34.7251907</p>
						<p class="lng">112.79852159999996</p>
					</div>
				</div>
									
				<!-- 10 -->
				<div class="city" id="r0-c3-cc10" title="湖北">
					<div class="shop" id="r0-c3-cc10-s0">
						<h4>新宇三宝名表</h4>
						<p class="address">武汉市江汉区新华路218号,浦发银行大厦二楼。</p>
						<p class="contact">电话: (86-27) 8555 2628</p>
						<p class="lat">30.590003</p>
						<p class="lng">114.275075</p>
					</div>
				</div>
				
				<!-- 11 -->
				<div class="city" id="r0-c3-cc11" title="湖南">
					<div class="shop" id="r0-c3-cc11-s0">
						<h4>長沙友阿百貨</h4>
						<p class="address">長沙市人民中路9號</p>
						<p class="contact">电话：(86-731) 8979 5661</p>
						<p class="lat">28.1372918</p>
						<p class="lng">113.62763429999995</p>
					</div>
				</div>
				
				<!-- 12 -->
				<div class="city" id="r0-c3-cc12" title="内蒙古">
					<div class="shop" id="r0-c3-cc12-s0">
						<h4>包头王府井青山店</h4>
						<p class="address">内蒙古包头市青山区幸福路甲3号包头王府井一楼进口表依波路专柜</p>
						<p class="contact">电话: (86-472) 3166 634</p>
						<p class="lat">40.669083530824935</p>
						<p class="lng">109.87984657287598</p>
					</div>
					<div class="shop" id="r0-c3-cc12-s1">
						<h4>包頭神華國際城藍天商廈一樓名表</h4>
						<p class="address">包頭市昆區阿爾丁大街1號</p>
						<p class="contact">电话: (86-472) 5368 860</p>
						<p class="lat">40.6597286007</p>
						<p class="lng">109.8466726288</p>
					</div>
					<div class="shop" id="r0-c3-cc12-s2">
						<h4>鄂尔多斯北国新天地</h4>
						<p class="address">内蒙古鄂尔多斯市东胜区鄂尔多斯东街15号（北国新天地）一楼爱国名表</p>
						<p class="contact">电话: (86-477) 3982 122</p>
						<p class="lat">39.81226121816951</p>
						<p class="lng">110.00454783439636</p>
					</div>
				</div>
			
			    <!-- 13 -->
				<div class="city" id="r0-c3-cc13" title="江苏">
					<div class="shop" id="r0-c3-cc13-s0">
						<h4>苏州世家名表中心</h4>
						<p class="address">苏州观前街邵磨针巷88号</p>
						<p class="contact">电话: (86-512) 6522 9666</p>
						<p class="lat">31.3108455</p>
						<p class="lng">120.6234518</p>
					</div>
				</div>
				
				<!-- 14 -->
				<div class="city" id="r0-c3-cc14" title="江西">
					<div class="shop" id="r0-c3-cc14-s0">
						<h4>南昌百货大楼</h4>
						<p class="address">南昌市中山路1号</p>
						<p class="contact">電話: (86-791) 8627 1283</p>
						<p class="lat">28.675678</p>
						<p class="lng">115.90305130000002</p>
					</div>
					<div class="shop" id="r0-c3-cc14-s1">
						<h4>南昌亨得利钟表店</h4>
						<p class="address">南昌市胜利路28号</p>
						<p class="contact"></p>
						<p class="lat">28.676362</p>
						<p class="lng">115.888462</p>
					</div>
				</div>
			
				<!-- 15 -->
				<div class="city" id="r0-c3-cc15" title="吉林">
					<div class="shop" id="r0-c3-cc15-s0">
						<h4>长春市国际贸易中心</h4>
						<p class="address">长春市朝阳区人民大街2059号</p>
						<p class="contact">电话：(86-431) 8848 7636</p>
						<p class="lat">43.890311</p>
						<p class="lng">125.32435099999998</p>
					</div>
				</div>
				
				<!-- 16 -->
				<div class="city" id="r0-c3-cc16" title="辽宁">
					<div class="shop" id="r0-c3-cc16-s1">
						<h4>盘锦兴隆台区亨达利钟表维修中心</h4>
						<p class="address">盘锦市兴隆台区中兴路103号</p>
						<p class="lat">41.12832299999999</p>
						<p class="lng">122.06821100000002</p>
					</div>
					<div class="shop" id="r0-c3-cc16-s2">
						<h4>依波路（沈阳）维修部</h4>
						<p class="address">沈阳市和平区中山路59号朗勤泰元中心702室</p>
						<p class="contact">电话：(86-024) 8389 5100</p>
						<p class="lat">41.795797</p>
						<p class="lng">123.403902</p>
					</div>						
				</div>
				
				<!-- 17 -->
				<div class="city" id="r0-c3-cc17" title="山东">
					<div class="shop" id="r0-c3-cc17-s0">
						<h4>青岛市亨得利钟表眼镜珠宝有限公司</h4>
						<p class="address">青岛市中山路144号</p>
						<p class="contact">电话：(86-532) 8280 5856</p>
						<p class="lat">36.070604203857975</p>
						<p class="lng">120.31855881214142</p>
					</div>
					<div class="shop" id="r0-c3-cc17-s1">
						<h4>临沂亨得利瑞士名表店</h4>
						<p class="address">临沂市解放路中段71号</p>
						<p class="contact">电话：(86-539) 8236 509</p>
						<p class="lat">35.069345</p>
						<p class="lng">118.269451</p>
					</div>
					<div class="shop" id="r0-c3-cc17-s2">
						<h4>济南世茂国际广场依波路旗舰店</h4>
						<p class="address">山东省泉城路26号济南世茂国际广场1层E105</p>
						<p class="contact">电话：(86-531) 5571 6782</p>
						<p class="lat">36.665187</p>
						<p class="lng">117.029649</p>
					</div>
				</div>
			
				<!-- 18 -->
				<div class="city" id="r0-c3-cc18" title="上海">
					<div class="shop" id="r0-c3-cc18-s0">
						<h4>依波路（上海）维修部</h4>
						<p class="address">上海市浙江中路400号春申江大厦1702室</p>
						<p class="contact">电话: (86-21) 6351 8017</p>
						<p class="lat">31.236284055022406</p>
						<p class="lng">121.47824674844742</p>
					</div>
					<div class="shop" id="r0-c3-cc18-s1">
						<h4>上海三联集团有限公司名表维修中心</h4>
						<p class="address">上海市南京东路456号，亨得利钟表公司B1楼</p>
						<p class="contact">电话: (86-21) 6321 1802</p>
						<p class="lat">31.23646293891111</p>
						<p class="lng">121.48184359073639</p>
					</div>
					<div class="shop" id="r0-c3-cc18-s2">
						<h4>上海金钟名表服务中心</h4>
						<p class="address">上海市淮海中路98号金钟广场14楼1409室</p>
						<p class="lat">31.22556645740019</p>
						<p class="lng">121.47922575473785</p>
					</div>
					<div class="shop" id="r0-c3-cc18-s3">
						<h4>上海上钟名表服务中心</h4>
						<p class="address">上海市雁荡路34号</p>
						<p class="lat">31.22042396429737</p>
						<p class="lng">121.46982729434967</p>
					</div>
				</div>
				
				<!-- 19 -->
				<div class="city" id="r0-c3-cc19" title="陕西">
					<div class="shop" id="r0-c3-cc19-s0">
						<h4>西安开元商城世界名表维修中心</h4>
						<p class="address">西安市碑林区东大街解放市场6号</p>
						<p class="contact">电话：(86-29) 8725 6995</p>
						<p class="lat">34.25918724104541</p>
						<p class="lng">108.94856214523315</p>
					</div>
					<div class="shop" id="r0-c3-cc19-s1">
						<h4>西安春江商贸有限责任公司</h4>
						<p class="address">西安市东关正街129号世贸大厦C座25层A户</p>
						<p class="contact">电话: (86-29) 8812 2091</p>
						<p class="lat">34.25904092918819</p>
						<p class="lng">108.9752984046936</p>
					</div>
					<div class="shop" id="r0-c3-cc19-s2">
						<h4>瑞士依波路表專賣店</h4>
						<p class="address">西安市南大街100號鐘樓飯店一樓</p>
						<p class="contact">电话: (86-29) 8728 0926</p>
						<p class="lat">34.2647092734</p>
						<p class="lng">108.9530726725</p>
					</div>
					<div class="shop" id="r0-c3-cc19-s3">
						<h4>亨吉利西安豪门店名表维修中心</h4>
						<p class="address">西安市碑林区南大街36号</p>
						<p class="contact">电话: (86-29) 8761 5329</p>
						<p class="lat">34.255462</p>
						<p class="lng">108.946814</p>
					</div>
				</div>
				
				<!-- 20 -->
				<div class="city" id="r0-c3-cc20" title="山西">
					<div class="shop" id="r0-c3-cc20-s0">
						<h4>太原巴黎春天百货有限公司</h4>
						<p class="address">山西太原迎泽区米市街53号1层钟表维修中心</p>
						<p class="contact">电话: (86-351) 821 2206</p>
						<p class="lat">37.86446985726342</p>
						<p class="lng">112.56540298461914</p>
					</div>
				</div>
				
				<!-- 21 -->
				<div class="city" id="r0-c3-cc21" title="深圳">
					<div class="shop" id="r0-c3-cc21-s0">
						<h4>深圳市免税商场亨吉利世界名表中心</h4>
						<p class="address">深圳市深南中路3024号格兰云天大酒店免税商场1楼</p>
						<p class="contact">电话：(86-755) 8336 5968</p>
						<p class="lat">22.540789</p>
						<p class="lng">114.08267799999999</p>
					</div>
				</div>
				
				<!-- 22 -->
				<div class="city" id="r0-c3-cc22" title="四川">
					<div class="shop" id="r0-c3-cc22-s2">
						<h4>瑞士依波路表成都专卖店维修站</h4>
						<p class="address">成都市锦江区中纱帽街8号（成都远洋太古里）地下一层M076a号</p>
						<p class="contact">電話： (86-28) 8671 5086</p>
						<p class="lat">30.653123</p>
						<p class="lng">104.081718</p>
					</div>
					<div class="shop" id="r0-c3-cc22-s1">
						<h4>宜宾市叙府商城依波路维修站</h4>
						<p class="address">宜宾市人民路14号</p>
						<p class="contact">电话: (86-831) 823 9893</p>
						<p class="lat">28.767166</p>
						<p class="lng">104.62126699999999</p>
					</div>
					<div class="shop">
                        <h4>成都沙弯凯德广场</h4>
                        <p class="address">成都市金牛区二环路北一段10号沙湾凯德广场</p>
                        <p class="contact hidden"></p>
                        <p class="lat">30.626687</p>
                        <p class="lng">104.028128</p>
                    </div>
                    <div class="shop">
                        <h4>内江万达百货</h4>
                        <p class="address">四川内江市市中区河东新区万达百货</p>
                        <p class="contact hidden"></p>
                        <p class="lat">29.521984</p>
                        <p class="lng">104.671522</p>
                    </div>
                    <div class="shop">
                        <h4>广元万达百货</h4>
                        <p class="address">广元市利州区万源新区万达百货一楼钟表柜</p>
                        <p class="contact hidden"></p>
                        <p class="lat">32.428025</p>
                        <p class="lng">105.850090</p>
                    </div>				
				</div>
				
				<!-- 23 -->
				<div class="city" id="r0-c3-cc23" title="天津">
					<div class="shop" id="r0-c3-cc23-s0">
						<h4>天津亨得利特约维修部</h4>
						<p class="address">天津市和平区和平路243号，圣奥商厦4楼</p>
						<p class="contact">电话: (86-22) 2711 4432</p>
						<p class="lat">39.12686432058989</p>
						<p class="lng">117.20176219940186</p>
					</div>
				</div>
			
				<!-- 24 -->
				<div class="city" id="r0-c3-cc24" title="新疆">
					<div class="shop" id="r0-c3-cc24-s0">
						<h4>世纪名表特约维修中心</h4>
						<p class="address">乌市中山路299号，世纪名表中山店三楼维修中心</p>
						<p class="contact">电话：(86-991) 2819 620</p>
						<p class="lat">43.79439924268015</p>
						<p class="lng">87.61622697114944</p>
					</div>
					<div class="shop" id="r0-c3-cc24-s1">
						<h4>星宝国际名表有限公司天百维修中心</h4>
						<p class="address">乌市和平北路16号，天山百货大楼一楼名表厅</p>
						<p class="contact">电话：(86-991) 2326 131</p>
						<p class="lat">43.79386681466335</p>
						<p class="lng">87.62645423412323</p>
					</div>
					<div class="shop">
                        <h4>乌鲁木齐太百购物中心</h4>
                        <p class="address">新疆省乌鲁木齐市沙依巴克区友好路太百购物中心一楼名表厅</p>
                        <p class="contact hidden"></p>
                        <p class="lat">43.822595</p>
                        <p class="lng">87.589938</p>
                    </div>
				</div>
				
				<!-- 25 -->
				<div class="city" id="r0-c3-cc25" title="云南">
					<div class="shop" id="r0-c3-cc25-s0">
						<h4>昆明金格百货（金龙店）名表维修中心</h4>
						<p class="address">昆明市白塔路90号</p>
						<p class="contact">电话：(86-871) 316 7055</p>
						<p class="lat">25.037243</p>
						<p class="lng">102.72549800000002</p>
					</div>
					<div class="shop" id="r0-c3-cc25-s1">
						<h4>昆明百货大楼</h4>
						<p class="address">昆明市东风西路1号昆明百货大楼5楼维修部</p>
						<p class="contact">电话：(86-871) 364 3629</p>
						<p class="lat">25.036040261853728</p>
						<p class="lng">102.70964205265045</p>
					</div>
				</div>
				
				<!-- 26 -->
				<div class="city" id="r0-c3-cc26" title="浙江">
					<div class="shop" id="r0-c3-cc26-s0">
						<h4>杭州瑞表贸易有限公司天域钟表店</h4>
						<p class="address">杭州市城站广场江城路885号联银大厦</p>
						<p class="contact">电话：(86-571) 8780 0121</p>
						<p class="lat">30.242461483954536</p>
						<p class="lng">120.18035262823105</p>
					</div>
					<div class="shop" id="r0-c3-cc26-s1">
						<h4>杭州大厦购物城</h4>
						<p class="address">浙江省杭州市武林广场1号</p>
						<p class="contact">电话：(86-571) 8517 3485</p>
						<p class="lat">30.27301782226549</p>
						<p class="lng">120.16148865222931</p>
					</div>
					<div class="shop" id="r0-c3-cc26-s2">
						<h4>杭州廣誠鐘表有限公司</h4>
						<p class="address">杭州市下城區慶春路118號嘉德廣場2006室</p>
						<p class="contact">电话：(86-571) 8880 3981</p>
						<p class="lat">30.2638369093</p>
						<p class="lng">120.1798148090</p>
					</div>
					<div class="shop" id="r0-c3-cc26-s3">
						<h4>嘉兴市戴梦得手表服务中心</h4>
						<p class="address">嘉兴市禾兴路366号戴梦得大酒店6楼</p>
						<p class="contact">电话：(86-573) 8207 7765</p>
						<p class="lat">30.780879</p>
						<p class="lng">120.745235</p>
					</div>
				</div>

				<!-- 27 -->
				<div class="city" id="r0-c3-cc27" title="廣西">
					<div class="shop" id="r0-c3-cc27-s0">
						<h4>瑞士依波路品牌南宁专业维修中心</h4>
						<p class="address">南宁市青秀区东葛路延长线118号万达百货一楼依波路专柜</p>
						<!-- <p class="contact">电话：(86-771) 253 2339</p> -->
						<p class="lat">22.8076577000</p>
						<p class="lng">108.3359858000</p>
					</div>
				</div>

				<!-- 28 -->
				<div class="city" id="r0-c3-cc28" title="福建">
					<div class="shop" id="r0-c3-cc28-s0">
						<h4>福州世欧广场伊信佳名表</h4>
						<p class="address">福州市晋安区长乐中路世欧广场A3座一层9号</p>
						<p class="contact">电话： (86-0591) 6316 0889</p>
						<p class="lat">26.071586</p>
						<p class="lng">119.306463</p>
					</div>
				</div>
			</div>			
			<div class="country" title="China (Hong Kong)">
				<div class="city default" title="China (Hong Kong)">
					<div class="shop">
						<h4>HongKong Zhouyuzan Clocks and Watches Technical Service Center</h4>
						<p class="address">1/F, Central Financial Center, No. 131 Queen's Road Central, Hong Kong</p>						
						<p class="lat">22.284523</p>
						<p class="lng">114.156099</p>
					</div>
					<div class="shop">
						<h4>Ernest Borel (Far East) Co. Ltd.</h4>
						<p class="address">Suites 1101-3 &amp; 1112-14, 11/F, Tower 6, The Gateway, Harbour City, 9 Canton Road, Tsim Sha Tsui, Kowloon, Hong Kong</p>
						<p class="contact">電話番号: (852) 3628 5511</p>
						<p class="contact">Email: enquiry@ernestborel.ch</p>
						<p class="lat">22.29708</p>
						<p class="lng">114.168146</p>
					</div>
					<div class="shop">
						<h4>Flagship Store (Tsim Sha Tsui)</h4>
						<p class="address">Shop C, G/F &amp; 1/F, Burlington Arcade, 94A Nathan Road, Tsim Sha Tsui, Kowloon, Hong Kong</p>
						<p class="contact">電話番号: (852) 2739 3168</p>
						<p class="lat">22.299220</p>
						<p class="lng">114.172294</p>
					</div>
					<div class="shop">
						<h4>タイムプラザ</h4>
						<p class="address">九龍尖沙咀ネイザンロード63号国際プラザUG 05階</p>
						<p class="contact">電話番号: (852) 2677 8699</p>
						<p class="lat">22.29702554316115</p>
						<p class="lng">114.17189061641693</p>
					</div>
					<div id="hkisland" class="sub_region_nav hkisland">
						<ul>
							<li class="active"><a href="#" onClick="javascript: subregion_scroll('hkisland');" title="香港">香港</a></li>
							<li><a href="#" onClick="javascript: subregion_scroll('hkkln');" title="九龍">九龍</a></li>
							<li><a href="#" onClick="javascript: subregion_scroll('hknt');" title="新界">新界</a></li>
						</ul>
					</div>
				<div class="shop">
						<h4>九龍ウォッチ - 銅鑼湾</h4>
						<p class="address">香港銅鑼湾利園山道29-33号麗園ビル地下H号店舗</p>
						<p class="contact">電話番号: (852) 2890 3912</p>
						<p class="lat">22.27897775602295</p>
						<p class="lng">114.18336510658264</p>
					</div>
					<div class="shop">
						<h4>大上海時計</h4>
						<p class="address">香港銅鑼湾利園山道5号と7号地下</p>
						<p class="contact">電話番号: (852) 2831 9881</p>
						<p class="lat">22.279769505118242</p>
						<p class="lng">114.18327122926712</p>
					</div>
					<div class="shop">
						<h4>大中華ウォッチ</h4>
						<p class="address">香港中環コンノートロード中62号地下</p>
						<p class="contact">電話番号: (852) 2543 0968</p>
						<p class="lat">22.28538111551405</p>
						<p class="lng">114.15562570095062</p>
					</div>
					<div class="shop">
						<h4>ブロードウェイ時計ジュエリー</h4>
						<p class="address">香港銅鑼湾怡和街1号A2店舗</p>
						<p class="contact">電話番号: (852) 2882 2381</p>
						<p class="lat">22.279739721534348</p>
						<p class="lng">114.18541967868805</p>
					</div>
					<div class="shop">
						<h4>BROADWAY PHOTO SUPPLY LTD (LAFORET)</h4>
						<p class="address">Shop No.16, G/F, 26 East Point Road, Causeway Bay, Hong Kong</p>
						<p class="contact">電話番号: (852) 2890 6818</p>
						<p class="contact">ファクス番号: (852) 2890 7889</p>
						<p class="lat">22.281032819627107</p>
						<p class="lng">114.18444067239761</p>
					</div>
					<div class="shop">
						<h4>オリエンタルウォッチ - 上環</h4>
						<p class="address">香港中環徳補道中133号地下</p>
						<p class="contact">電話番号: (852) 2545 4577</p>
						<p class="lat">22.285207384824552</p>
						<p class="lng">114.15522336959839</p>
					</div>
					<div class="shop">
						<h4>金豊時計</h4>
						<p class="address">香港クイーンズロード西250号地下</p>
						<p class="contact">電話番号: (852) 2858 9232</p>
						<p class="lat">22.286904972595643</p>
						<p class="lng">114.14307564496994</p>
					</div>
					<!-- <div class="shop">
						<h4>BROADWAY PHOTO SUPPLY LTD (HANG LUNG CENTRE)</h4>
						<p class="address">Shop G02 &amp; F02, Hang Lung Centre, 2-20 Paterson Street, Causeway Bay, Hong Kong</p>
						<p class="contact">電話番号: (852) 3427 9819</p>
						<p class="contact">ファクス番号: (852) 3427 9919</p>
						<p class="lat">22.280169100921906</p>
						<p class="lng">114.1860044002533</p>
					</div> -->
					<div class="shop">
						<h4>祥達ウォッチ</h4>
						<p class="address">香港北角馬寶道18号2号店舗</p>
						<p class="contact">電話番号: (852) 2563 1315</p>
						<p class="lat">22.29171965616674</p>
						<p class="lng">114.20004308223724</p>
					</div>
					<div class="shop">
						<h4>銀聯時計</h4>
						<p class="address">香港銅鑼湾パーシバルストリート64号店舗</p>
						<p class="contact">電話番号: (852) 2836 0028 </p>
						<p class="contact">ファクス番号: (852) 2838 8329</p>
						<p class="lat">22.27956846580391</p>
						<p class="lng">114.18283939361572</p>
					</div>
					<div class="shop">
						<h4>尊貴時計ジュエリー</h4>
						<p class="address">香港銅鑼湾パーシバルストリート63号地下</p>
						<p class="contact">電話番号: (852) 2891 6308</p>
						<p class="lat">22.279394727892058</p>
						<p class="lng">114.18292254209518</p>
					</div>
					<div class="shop">
						<h4>BROADWAY PHOTO SUPPLY LTD (TIME SQUARE)</h4>
						<p class="address">Shop 814-816, Times Square, Causeway Bay, Hong Kong</p>
						<p class="contact">電話番号: (852) 2506 0228</p>
						<p class="contact">ファクス番号: (852) 2506 2815</p>
						<p class="lat">22.278235642299578</p>
						<p class="lng">114.18196231126785</p>
					</div>
					<div class="shop">
						<h4>YAU WING JEWELLERY &amp; WATCH COMPANY</h4>
						<p class="address">香港湾仔ヘネシーロード416号地下</p>
						<p class="contact">電話番号: (852) 2833 0970</p>
						<p class="contact">ファクス番号: (852) 2838 4670</p>
						<p class="lat">22.278736</p>
						<p class="lng">114.180362</p>
					</div>
					<div class="shop">
						<h4>TUNG HING WATCH CO. LTD</h4>
						<p class="address">G/F, 162 Des Voeux Road, Hong Kong</p>
						<p class="contact">電話番号: (852) 2541 0130</p>
						<p class="contact">ファクス番号: (852) 2854 3534</p>
						<p class="lat">22.285645</p>
						<p class="lng">114.154188</p>
					</div>
					<!-- <div class="shop">
						<h4>JUSTWATCH CO., LTD. (WORLD TRADE CENTRE)</h4>
						<p class="address">Shop P123, Podium 1, World Trade Centre, 280 Gloucester Road, Causeway Bay, Hong Kong</p>
						<p class="contact">電話番号: (852) 2808 1811</p>
						<p class="lat">22.281646</p>
						<p class="lng">114.184141</p>
					</div> -->
					<div class="shop">
						<h4>FINE ASIA WATCH (HONG KONG) CO LTD (SOGO)</h4>
						<p class="address">Shop 2, 1/F, New Wing, Sogo, 550 Hennessy Road, Causeway Bay, Hong Kong</p>
						<p class="contact">電話番号: (852) 2834 3789</p>
						<p class="lat">22.280301</p>
						<p class="lng">114.184631</p>
					</div>
					<div class="shop">
						<h4>TIC TAC TIME CO., LTD. (SHUN TAK CENTRE)</h4>
						<p class="address">Shop 246, 2/F, Shun Tak Centre, 200 Connaught Road Central, Hong Kong</p>
						<p class="contact">電話番号: (852) 2857 5368</p>
						<p class="lat">22.287909</p>
						<p class="lng">114.151802</p>
					</div>
					<div class="shop">
						<h4>ISA BOUTIQUE (SINO PLAZA)</h4>
						<p class="address">G/F &amp; 1/F, Sino Plaza, 256-258 Gloucester Road, Causeway Bay, Hong Kong</p>
						<p class="contact">電話番号: (852) 2366 5828</p>
						<p class="lat">22.281374</p>
						<p class="lng">114.182439</p>
					</div>
					<div class="shop">
						<h4>ブロードウェイアプライアンス - パークレーンホテルアーケード</h4>
						<p class="address">パークレーンショッピングセンター、コーズウェイベイ、103 C SHOP SHOPの一階</p>
						<p class="contact">電話番号: (852) 2796 2444</p>
						<p class="lat">22.281170</p>
						<p class="lng">114.186361</p>
					</div>
					<div id="hkkln" class="sub_region_nav hkkln">
						<ul>
							<li><a href="#" onClick="javascript: subregion_scroll('hkisland');" title="Hong Kong">Hong Kong</a></li>
							<li class="active"><a href="#" onClick="javascript: subregion_scroll('hkkln');" title="Kowloon">Kowloon</a></li>
							<li><a href="#" onClick="javascript: subregion_scroll('hknt');" title="New Territories">New Territories</a></li>
						</ul>
					</div>
					<!-- <div class="shop">
						<h4>九龍ウォッチ - 観塘</h4>
						<p class="address">九龍観塘物華街23号地下</p>
						<p class="contact">電話番号: (852) 2343 8315</p>
						<p class="lat">22.315013928597875</p>
						<p class="lng">114.22453165054321</p>
					</div> -->
					<div class="shop">
						<h4>九龍ウォッチ - 旺角</h4>
						<p class="address">九龍旺角サイヨンチョイストリート南256号地下</p>
						<p class="contact">電話番号: (852) 2381 0962</p>
						<p class="lat">22.32317481418699</p>
						<p class="lng">114.16930228471756</p>
					</div>
					<div class="shop">
						<h4>KOWLOON WATCH CO. (TSIM SHA TSUI - I SQUARE)</h4>
						<p class="address">Shop No.13, MTR/F, I Square, 63 Nathan Road, TST, Kowloon</p>
						<p class="contact">電話番号: (852) 2811 2172</p>
						<p class="contact">ファクス番号: (852) 2811 2256</p>
						<p class="lat">22.297035469795514</p>
						<p class="lng">114.17189866304398</p>
					</div>
					<!-- <div class="shop">
						<h4>九龍ウォッチ - 信和センター</h4>
						<p class="address">九龍旺角ネイザンロード582号信和センターG28-29</p>
						<p class="contact">電話番号: (852) 2782 3777</p>
						<p class="lat">22.316061049754023</p>
						<p class="lng">114.1703724861145</p>
					</div> -->
					<div class="shop">
						<h4>九龍ウォッチ - アーガイルストリート</h4>
						<p class="address">九龍旺角アーガイルストリート24-26号東方ビル地下号店舗</p>
						<p class="contact">電話番号: (852) 2789 3011</p>
						<p class="lat">22.31925447263937</p>
						<p class="lng">114.17015254497528</p>
					</div>
					<!-- <div class="shop">
						<h4>プリンスジュエリー - オーシャンセンター</h4>
						<p class="address">九龍尖沙咀海港城海洋センター3階316-318と366-367号店舗</p>
						<p class="contact">電話番号: (852) 2736 6636</p>
						<p class="lat">22.296320750318156</p>
						<p class="lng">114.16829645633698</p>
					</div> -->
					<!-- <div class="shop">
						<h4>プリンスジュエリー - オーシャンターミナル</h4>
						<p class="address">九龍尖沙咀海港城オーシャンターミナル2階OT281号店舗</p>
						<p class="contact">電話番号: (852) 2311 4432</p>
						<p class="lat">22.29503027533561</p>
						<p class="lng">114.16687488555908</p>
					</div> -->
					<div class="shop">
						<h4>PRINCE JEWELLERY &amp; WATCH CO. (PEKING ROAD)</h4>
						<p class="address">Shop 3, G/F, Bo Yip Building, 10 Peking Road, Tsim Sha Tsui, Kowloon</p>
						<p class="contact">電話番号: (852) 2369 2123</p>
						<p class="contact">ファクス番号: (852) 2311 3755</p>
						<p class="lat">22.296588770550596</p>
						<p class="lng">114.17070508003235</p>
					</div>
					<div class="shop">
						<h4>PRINCE JEWELLERY &amp; WATCH CO. (PRESTIGE TOWER)</h4>
						<p class="address">Shop 1-2, G/F, Prestige Tower, 23-25 Nathan Road, Tsim Sha Tsui, Kowloon</p>
						<p class="contact">電話番号: (852) 2739 2333</p>
						<p class="lat">22.296000614366754</p>
						<p class="lng">114.17195230722427</p>
					</div>
					<!-- <div class="shop">
						<h4>六福ジュエリー - 佐敦</h4>
						<p class="address">九龍ネイザンロード221B-E号恒福ファッションセンター地下G02号店舗</p>
						<p class="contact">電話番号: (852) 2782 1777</p>
						<p class="contact">ファクス番号: (852) 2783 2522</p>
						<p class="lat">22.303956643921786</p>
						<p class="lng">114.17160362005234</p>
					</div> -->
					<div class="shop">
						<h4>>ジュネーブウォッチ - ネイザンロード</h4>
						<p class="address">九龍尖沙咀ネイザンロード64号B地下</p>
						<p class="contact">電話番号: (852) 2369 0376</p>
						<p class="lat">22.297082621299158</p>
						<p class="lng">114.1724243760109</p>
					</div>
					<div class="shop">
						<h4>オリエンタルウォッチ - 油麻地</h4>
						<p class="address">九龍油麻地ネイザンロード555号九龍行地下B-C号店舗</p>
						<p class="contact">電話番号: (852) 2384 8103</p>
						<p class="lat">22.314138013161617</p>
						<p class="lng">114.170281291008</p>
					</div>
					<!-- <div class="shop">
						<h4>美億ジュエリー</h4>
						<p class="address">九龍ネイザンロード375-381号地下6号店舗</p>
						<p class="contact">電話番号: (852) 2789 2808</p>
						<p class="lat">22.308276930505343</p>
						<p class="lng">114.17106181383133</p>
					</div> -->
					<div class="shop">
						<h4>時計宝</h4>
						<p class="address">九龍尖沙咀漆咸道39号鉄道ビル地下と1階A号</p>
						<p class="contact">電話番号: (852) 2723 9989</p>
						<p class="lat">22.304991440415783</p>
						<p class="lng">114.17149633169174</p>
					</div>
					<div class="shop">
						<h4>華興ウォッチ</h4>
						<p class="address">九龍旺角ネイザンロード644-646号</p>
						<p class="contact">電話番号: (852) 2396 0389</p>
						<p class="lat">22.31859693621582</p>
						<p class="lng">114.169742166996</p>
					</div>
					<div class="shop">
						<h4>栄記ウォッチ</h4>
						<p class="address">九龍ネイザンロード301-309号裕華国貨地面専売店</p>
						<p class="contact">電話番号: (852) 2388 0591</p>
						<p class="lat">22.305502632017674</p>
						<p class="lng">114.17144268751144</p>
					</div>
					<div class="shop">
						<h4>駿昇ウォッチシティ</h4>
						<p class="address">九龍紅磡民楽街23号駿昇センターB1座地下</p>
						<p class="contact">電話番号: (852) 2367 3222</p>
						<p class="lat">22.30940102681421</p>
						<p class="lng">114.18972730636597</p>
					</div>
					<div class="shop">
						<h4>プレステージダイヤモンドウォッチ</h4>
						<p class="address">九龍紅磡黄埔花園第7期地下3号A-B店舗</p>
						<p class="contact">電話番号: (852) 2187 2301</p>
						<p class="lat">22.303495077545538</p>
						<p class="lng">114.1913178563118</p>
					</div>
					<div class="shop">
						<h4>喜楽時ウォッチ</h4>
						<p class="address">Shop C-D, G/F, 258-260 Sai Yeung Choi Street South, Kowloon</p>
						<p class="contact">電話番号: (852) 2780 3983</p>
						<p class="lat">22.316066012394828</p>
						<p class="lng">114.17035907506943</p>
					</div>
					<div class="shop">
						<h4>FINE ASIA WATCH (HONG KONG) CO LTD</h4>
						<p class="address">Shop, B, G/F, Crason Commercial Centre, 333 Nathan Road, Jordan, Kowloon</p>
						<p class="contact">電話番号: (852) 2374 4688</p>
						<p class="lat">22.306694</p>
						<p class="lng">114.171269</p>
					</div>
					<div class="shop">
						<h4>SWISMENT WATCH INTERNATIONAL</h4>
						<p class="address">Shop B 2/F Kowloon Bay Int'l Trade &amp; Exhibition Ctr, 1 Trademart Drive , Kowloon Bay, Kowloon</p>
						<p class="contact">電話番号: (852) 2155 1197</p>
						<p class="contact">ファクス番号: (852) 2155 9179</p>
						<p class="lat">22.323968</p>
						<p class="lng">114.203942</p>
					</div>
					<div class="shop">
						<h4>STAR WATCH</h4>
						<p class="address">Shop 10, G/F Star House, 3 Salisbury Road, TST, Kowloon</p>
						<p class="contact">電話番号: (852) 2367 2988</p>
						<!-- <p class="contact">電話番号: (852) 2346 9028</p> -->
						<p class="lat">22.294687</p>
						<p class="lng">114.168793</p>
					</div>
					<div class="shop">
						<h4>TIME WATCH</h4>
						<p class="address">Shop B, G/F, Kwung Tong Habour Plaza, No. 182 Wai Yip Street, Kwun Tong, Kowloon</p>
						<p class="contact">電話番号: (852) 2112 9696</p>
						<p class="lat">22.309044</p>
						<p class="lng">114.221697</p>
					</div>
					<!-- <div class="shop">
						<h4>JUSTWATCH CO., LTD. (SILVERCORD CENTRE)</h4>
						<p class="address">Shop LG73, LG, Silvercord Centre, 30 Canton Road, Tsim Sha Tsui, Kowloon</p>
						<p class="contact">電話番号: (852) 2375 1813</p>
						<p class="lat">22.297334</p>
						<p class="lng">114.169384</p>
					</div> -->
					<div class="shop">
						<h4>ROYAL CITY</h4>
						<p class="address">Shop 9B &amp; 10B on G/F and Upper Basement , New Mandarin Plaza, 14 Science Museum Road, TST East, Kowloon</p>
						<p class="contact">電話番号: (852) 3963 9108</p>
						<p class="lat">22.300216</p>
						<p class="lng">114.178216</p>
					</div>
					<div class="shop">
						<h4>VALUABLE WATCH AND JEWELLERY CO., LTD. (MONG KOK)</h4>
						<p class="address">G/F, Sun Hing Building, 603-609 Nathan Rd., Mongkok, Kowloon</p>
						<p class="contact">電話番号: (852) 2891 6682</p>
						<p class="lat">22.316872</p>
						<p class="lng">114.169634</p>
					</div>
					<div class="shop">
						<h4>BROADWAY PHOTO SUPPLY LTD (ARGYLE STREET)</h4>
						<p class="address">79 Argyle Street, Mongkok, Kowloon</p>
						<p class="contact">電話番号: (852) 2381 9818</p>
						<p class="lat">22.319553</p>
						<p class="lng">114.170326</p>
					</div>
					<!-- <div class="shop">
						<h4>BROADWAY PHOTO SUPPLY LTD (CAMERON ROAD)</h4>
						<p class="address">G/F., 56 Cameron Road, Tsim Sha Tsui, Kowloon</p>
						<p class="contact">電話番号: (852) 2890 6818</p>
						<p class="lat">22.299217</p>
						<p class="lng">114.175208</p>
					</div> -->
					<div class="shop">
						<h4>BROADWAY PHOTO SUPPLY LTD (MK CITY CENTRE)</h4>
						<p class="address">G/F-2/F., Mongkok City Centre, 78 Sai Yeung Choi Street South, Mongkok, Kowloon</p>
						<p class="contact">電話番号: (852) 2366 3032</p>
						<p class="lat">22.318958</p>
						<p class="lng">114.170270</p>
					</div>
					<div class="shop">
						<h4>BROADWAY PHOTO SUPPLY LTD (OCEAN CENTRE)</h4>
						<p class="address">Shop 341-342, Level 3, Ocean Centre, Harbour City, Tsim Sha Tsui, Kowloon</p>
						<p class="contact">電話番号: (852) 2381 6760</p>
						<p class="lat">22.295770</p>
						<p class="lng">114.169210</p>
					</div>					
					<div class="shop">
						<h4>BROADWAY PHOTO SUPPLY LTD (BANK CENTRE)</h4>
						<p class="address">Shop No.1, G/F, Bank Centre, 636 Nathan Road, Mongkok, Kowloon</p>
						<p class="contact">電話番号: (852) 3427 9819</p>
						<p class="lat">22.318224</p>
						<p class="lng">114.169919</p>
					</div>
					<div class="shop">
						<h4>BROADWAY PHOTO SUPPLY LTD (GOOD HOPE BUILDING)</h4>
						<p class="address">B2 Good Hope Building, 13 Sai Yeung Choi St Southe, Mongkok, Kowloon</p>
						<p class="contact">電話番号: (852) 2506 0228</p>
						<p class="lat">22.317371</p>
						<p class="lng">114.170054</p>
					</div>
					<div class="shop">
                        <h4>BROADWAY PHOTO SUPPLY LTD (MONGKOK CENTRRE) </h4>
                        <p class="address">G/F, 28 Soy Street, Mongkok, Kowloon</p>
                        <p class="contact">電話番号: (852) 2359 7899</p>
                        <p class="lat">22.316548000000000000</p>
                        <p class="lng">114.170754000000000000</p>
                    </div>
					<div class="shop">
						<h4>ISA BOUTIQUE (HANKOW CENTRE)</h4>
						<p class="address">Flat G18-19, Hankow Centre 4-4B Ashiley Road, Tsim Sha Tsui, Kowloon</p>
						<p class="contact">電話番号: (852) 2366 5816</p>
						<p class="lat">22.295950</p>
						<p class="lng">114.170983</p>
					</div>
                    <div class="shop">
                        <h4>UNIVERSAL TIMEPIECE LTD</h4>
                        <p class="address">Shop 9-49, G/F Harbour Crystal Centre, 100 Granville Road, Tsim Sha Tsui, Kowloon</p>
                        <p class="contact">Tel: (852) 2126 7257</p>
                        <p class="lat">22.300835500000000000</p>
                        <p class="lng">114.178362500000000000</p>
                    </div>
                    <div class="shop">
                        <h4>ISA BOUTIQUE (SILVERCORD CENTRE)</h4>
                        <p class="address">Shop LG73, LG, Silvercord Centre, 30 Canton Road, Tsim Sha Tsui, Kowloon</p>
                        <p class="contact">Tel: (852) 2366 6308</p>
                        <p class="lat">22.297484900000000000</p>
                        <p class="lng">114.169408500000000000</p>
                    </div>
					<div id="hknt" class="sub_region_nav hknt">
						<ul>
							<li><a href="#" onClick="javascript: subregion_scroll('hkisland');" title="香港">香港</a></li>
							<li><a href="#" onClick="javascript: subregion_scroll('hkkln');" title="九龍">九龍</a></li>
							<li class="active"><a href="#" onClick="javascript: subregion_scroll('hknt');" title="新界">新界</a></li>
						</ul>
					</div>
                    <div class="shop">
                        <h4>KOWLOON WATCH CO. (TSUEN WAN)</h4>
                        <p class="address">Shop 190-19, 2/F Tsuen Wan Tsuen Kam Centre, 338 Castle Peak Rd, NT</p>
                        <p class="contact">Tel: 2427 3164</p>
                        <p class="lat">22.374217300000000000</p>
                        <p class="lng">114.115215500000000000</p>
                    </div>
					<div class="shop">
						<h4>PRINCE JEWELLERY &amp; WATCH CO. (LANDMARK NORTH)</h4>
						<p class="address">Shop 201-203 &amp; 263-265, Level 2, Landmark North, 39 Lung Sum Avenue, Shek Wu Hui, Sheung Shui, N.T.</p>
						<p class="contact">電話番号: (852) 2323 2308</p>
						<p class="contact">ファクス番号: (852) 2323 2302</p>
						<p class="lat">22.502660214744523</p>
						<p class="lng">114.12785947322845</p>
					</div>
					<div class="shop">
						<h4>傑成ウォッチ有限公司</h4>
						<p class="address">新界元朗青山道211-223号喜利デパート地下5号</p>
						<p class="contact">電話番号: (852) 2476 1482</p>
						<p class="lat">22.444717632210512</p>
						<p class="lng">114.02541249990463</p>
					</div>
					<div class="shop">
						<h4>KOWLOON WATCH CO. (TSEUNG KWAN O) </h4>
						<p class="address">F10-11, 1F, The Edge, 9 Tong Chun Street, Tseung Kwan O, NT</p>
						<p class="contact">電話番号: (852) 2323 6300</p>
						<p class="lat">22.308523</p>
						<p class="lng">114.261153</p>
					</div>
					<div class="shop">
						<h4>FINE ASIA WATCH (HONG KONG) CO LTD (TUEN MUN)</h4>
						<p class="address">Shop 1073, 1/F, Tuen Mun Town Plaza, Phase 1, Tuen Mun, N.T.</p>
						<p class="contact">電話番号: (852) 2116 2318</p>
						<p class="lat">22.394140</p>
						<p class="lng">113.976150</p>
					</div>
					<div class="shop">
						<h4>KIT SHING WATCH CO., LTD.</h4>
						<p class="address">Shop A, G/F Fung Hing Building, 33-35 Yuen Long Hong Lok Road, Yuen Long, NT</p>
						<p class="contact">電話番号: (852) 2476 8826</p>
						<p class="lat">22.443150</p>
						<p class="lng">114.027281</p>
					</div>
				</div>
			</div>
			<div class="country" title="China (Macau)">
				<div class="city" title="China (Macau)">
					<div class="shop">
						<h4>Macau Zhouyuzan Clocks and Watches Technical Service Center</h4>
						<p class="address">Room G,10/F,The Macau Square, No.47-53 Avenida do infante D.Henrique, Macau</p>
						<p class="contact">Tel: (853) 2871 7323</p>
						<p class="lat">22.191599</p>
						<p class="lng">113.541546</p>
					</div>
					<div class="shop">
						<h4>Macau Zhouyuzan Clocks and Watches Technical Service Center</h4>
						<p class="address">Shop D, G/F &amp; M/F., The Macau Square, No.47-53 Avenida do infante D.Henrique, Macau</p>
						<p class="contact">Tel: (853) 2871 7323</p>
						<p class="lat">22.191599</p>
						<p class="lng">113.541546</p>
					</div>
					<div class="shop">
						<h4>大豊時計</h4>
						<p class="address">マカオ新馬路310～316号</p>
						<p class="contact">電話番号: (853) 2837 5155</p>
						<p class="lat">22.194468175489394</p>
						<p class="lng">113.53882491588593</p>
					</div>
					<div class="shop">
						<h4>ORIENTAL WATCH (MACAU) CO., LTD. (MACAU SQUARE)</h4>
						<p class="address">Shop D, G/F, The Macau Square, Avenida do Infante D. Henrique, No. 47-53, Macau</p>
						<p class="contact">電話番号: (853) 2871 7323</p>
						<p class="lat">22.19097139737843</p>
						<p class="lng">113.5419899225235</p>
					</div>
					<div class="shop">
						<h4>HONG KONG MACAU INTERNATIONAL DUTY FREE SHOP</h4>
						<p class="address">G/F - /F, Miami Building, Macau Fisherman's Wharf, Avenida Dr. Sun Yat-Sen, Macau</p>
						<p class="contact">電話番号: (853) 2872 8148</p>
						<p class="lat">22.191840633022508</p>
						<p class="lng">113.556307554245</p>
					</div>
					<div class="shop">
						<h4>POPULAR JEWELRY</h4>
						<p class="address">No.267-269 Avenida Doutor Mario Soares, Macau</p>
						<p class="contact">電話番号: (853) 2876 1111</p>
						<p class="lat">22.191632016958522</p>
						<p class="lng">113.54170024394989</p>
					</div>
					<div class="shop">
						<h4>YU XING LONG WATCH CO., LTD.</h4>
						<p class="address">194, Avenue Almeida Ribeiro, Macau</p>
						<p class="contact">電話番号: (853) 2835 7004</p>
						<p class="lat">22.193631</p>
						<p class="lng">113.539523</p>
					</div>
					<div class="shop">
						<h4>ISA BOUTIQUE (MACAU TOWER)</h4>
						<p class="address">Shop No. 1A, 1, 2, 10, 11, 16, 17, 18, 19B, 20B, 21 on Lower Ground Floor, Macau Tower Convention &amp; Entertainment Centre</p>
						<p class="contact">電話番号: (853) 2896 7880</p>
						<p class="lat">22.179968</p>
						<p class="lng">113.537771</p>
					</div>
					<div class="shop">
						<h4>YU XING LONG WATCH CO., LTD.</h4>
						<p class="address">Rua De S. Domingos, 23-25 R/C, Macau</p>
						<p class="contact">電話番号: (853) 2835 7004</p>
						<p class="lat">22.1944781093941</p>
						<p class="lng">113.54173511266708</p>
					</div>
					<div class="shop">
						<h4>YU XING LONG WATCH CO., LTD.</h4>
						<p class="address">Rua Plha , No. 10, Yu Heng Seong Cheong , R/C Macau</p>
						<p class="contact">電話番号: (853) 2836 6396</p>
						<p class="lat">22.195036890402424</p>
						<p class="lng">113.54064881801605</p>
					</div>
					
					<div class="shop">
						<h4>NEWAGE WATCH LTD</h4>
						<p class="address">Avenida de D. Joao IV No. 17-D R/C, Macau</p>
						<p class="contact">電話番号: (853) 2828 2201</p>
						<p class="lat">22.192012</p>
						<p class="lng">113.543239</p>
					</div>
					<div class="shop">
						<h4>IAT CHI TIMEPIECES</h4>
						<p class="address">A9, No.8, Rua De Peqium Edificio, I CHAN KOR R/C, Macau</p>
						<p class="contact">電話番号: (853) 2833 8455</p>
						<p class="lat">22.191002</p>
						<p class="lng">113.546483</p>
					</div>
				</div>
			</div>
			<div class="country" title="India">
				<div class="city" title="Mumbai, Maharashtra">
					<div class="shop">
						<h4>Bayside Labels Pvt Ltd</h4>
						<p class="address">104, Navkar chambers marol naka metro station andheri east, 40001 Mumbai, Maharashtra, India</p>
						<p class="contact">Tel: +91 022 40039299</p>
                        <p class="contact">Web: www.baysidelabels.com</p>
						<p class="lat">19.108188</p>
						<p class="lng">72.879556</p>
					</div>
				</div>
			</div>			
			<div class="country" title="Malaysia">
				<div class="city" title="Malaysia">
					<div class="shop">
						<h4>All Watches Times Square</h4>
						<p class="address">Berjaya Times Square #01-63, No.1 Jalan Imbi 55100 Kuala Lumpur</p>
						<p class="contact">Tel: (603) 2142 8128</p>
						<p class="lat">3.142661</p>
						<p class="lng">101.710397</p>
					</div>
				</div>
			</div>
			<div class="country" title="Singapore">
				<div class="city" title="Singapore">
					<div class="shop">
						<h4>All Watches Bugis</h4>
						<p class="address">Bugis Junction, 200 Victoria St #01‐104 Singapore 188021</p>
						<p class="contact">Tel: (65) 6337 0669</p>
						<p class="lat">1.299416</p>
						<p class="lng">103.855594</p>
					</div>
					<div class="shop">
						<h4>Singapore Flagship Store</h4>
						<p class="address">Chinatown Point, 133 New Bridge Rd #01-21 Singapore 059413</p>
						<p class="contact">Tel: (65) 6636 3376</p>
						<p class="contact">Fax: (65) 6543 6125</p>
						<p class="lat">1.285326</p>
						<p class="lng">103.844916</p>
					</div>			
					<div class="shop">
						<h4>All Watches Lucky</h4>
						<p class="address">304 Orchard Rd, #B1-128 Lucky Plaza, Singapore 238863</p>
						<p class="contact">Tel: (65) 6732 7673</p>
						<p class="contact">Fax: (65) 6734 8816</p>
						<p class="lat">1.3045584</p>
						<p class="lng">103.83388220000006</p>
					</div>							
					<div class="shop">
						<h4>All Watches OG</h4>
						<p class="address">OG Dept Store Level 2, Albert Complex, 60 Albert St Singapore 189969</p>
						<p class="contact">Tel: (65) 6339 3771</p>
						<p class="lat">1.302371</p>
						<p class="lng">103.853896</p>
					</div>
					<div class="shop">
						<h4>All Watches Wisma</h4>
						<p class="address">Wisma Atria, 435 Orchard Rd #01‐16/17 Singapore 238877</p>
						<p class="contact">Tel: (65) 6733 2823</p>
						<p class="lat">1.303803</p>
						<p class="lng">103.833125</p>
					</div>
					<div class="shop">
						<h4>Aptimos BHG</h4>
						<p class="address">BHG Dept Store Level 1, Bugis Junction, 230 Victoria St Singapore 188024</p>
						<p class="contact">Tel: (65) 6337 5075</p>
						<p class="lat">1.299399</p>
						<p class="lng">103.855489</p>
					</div>
					<div class="shop">
						<h4>Aptimos Lucky</h4>
						<p class="address">Lucky Plaza, 304 Orchard Rd #B1‐116/117 Singapore 238863</p>
						<p class="contact">Tel: (65) 6732 6386</p>
						<p class="lat">1.304567</p>
						<p class="lng">103.833941</p>
					</div>
				</div>
			</div>			
			<div class="country" title="Taiwan">
				<div class="city" title="New Taipei City">
					<div class="shop">
						<h4>Readily International Timepieces LTD.</h4>
						<p class="address">2F-2, No.18, Lane 609, Sec.5, Chongxin Road, Sanchong District, New Taipei City 24159, Taiwan R.O.C.(Tomson Plaza)</p>
						<p class="contact">Tel: (02) 2999 1331</p>
						<p class="lat">25.045950190213286</p>
						<p class="lng">121.46703779697418</p>
					</div>
				</div>
			</div>			
			<div class="country" title="Vietnam">
				<div class="city" title="Ha Noi">
				<div class="shop">
						<h4>Vietnam Flagship Store</h4>
						<p class="address">3 Hang Khay street, Hoan Kiem District, Ha Noi, Viet Nam</p>
						<p class="contact">Tel: (84) 3936 6701</p>
						<p class="lat">21.025508730141873</p>
						<p class="lng">105.8532178401947</p>
					</div>
					<div class="separateLine">
					</div>
					<div class="shop">
						<h4>Galle Watch</h4>
						<p class="address">41 Thi Sach street, Hai Ba Trung District, Ha Noi, Viet Nam</p>
						<p class="contact">Tel: (84) 3978 4500</p>
						<p class="lat">20.93234214154338</p>
						<p class="lng">105.86058855056763</p>
					</div>
					<div class="shop">
						<h4>Galle Watch</h4>
						<p class="address">BigC Center, 222 Tran Duy Hung, Cau Giay District, Ha Noi, Viet Nam</p>
						<p class="contact">Tel: (84) 3783 0732</p>
						<p class="lat">21.007230</p>
						<p class="lng">105.794918</p>
					</div>
					<div class="shop">
						<h4>Galle Watch</h4>
						<p class="address">25 Hang Khay street , Hoan Kiem District, Ha Noi, Viet Nam</p>
						<p class="contact">Tel: (84) 3936 6701</p>
						<p class="lat">21.025658947844768</p>
						<p class="lng">105.85295230150223</p>
					</div>
					<div class="shop">
						<h4>Galle Watch</h4>
						<p class="address">1st Level, Vincom Center, 191 Ba Trieu street, Hai Ba Trung District, Ha Noi, Viet Nam</p>
						<p class="contact">Tel: (84) 3974 4525</p>
						<p class="lat">21.011392</p>
						<p class="lng">105.850035</p>
					</div>
					<div class="shop">
						<h4>Galle Watch</h4>
						<p class="address">B1/R4/K11 Royal City Center, 72A Nguyen Trai, Thanh Xuan District, Ha Noi, Viet Nam</p>
						<p class="contact">Tel: (84) 6262 0168</p>
						<p class="lat">20.985704</p>
						<p class="lng">105.795232</p>
					</div>
					<div class="shop">
						<h4>Galle Watch</h4>
						<p class="address">B1/D1/K8 Times City Center, 458 Minh Khai street, Hai Ba Trung District, Ha Noi, Viet Nam</p>
						<p class="contact">Tel: (84) 3200 1689</p>
						<p class="lat">20.997598</p>
						<p class="lng">105.866851</p>
					</div>
					<div class="shop">
						<h4>Galle Watch</h4>
						<p class="address">202 Thai Ha street, Dong Da District, Ha Noi, Viet Nam</p>
						<p class="contact">Tel: (84) 3538 1882</p>
						<p class="lat">21.038499</p>
						<p class="lng">105.829003</p>
					</div>
					<div class="shop">
                        <h4>Galle Watch</h4>
                        <p class="address">F3-B11 Tang 3 TTTM Lotte, 54 Lieu Giai, Ba Dinh, Ha Noi, Viet Nam</p>
                        <p class="contact">Tel: (84) 3267 6031</p>
                        <p class="contact">Tel: (84) 3267 6032</p>
                        <p class="lat">21.032201</p>
                        <p class="lng">105.812639</p>
                    </div>
                </div>
				<div class="city" id="r0-c5-cc1" title="Ho Chi Minh">
					<div class="shop">
						<h4>Galle Watch</h4>
						<p class="address">L1-45 Level, Vicom Center, 72 Le Thanh Ton street, One District, Ho Chi Minh, Viet Nam</p>
						<p class="contact">Tel: (84) 3936 9727</p>
						<p class="lat">10.777091</p>
						<p class="lng">106.701781</p>
					</div>
					<div class="shop">
						<h4>Galle Watch</h4>
						<p class="address">Maximark 3/2 Center, 3-3C, 3/2 street, Ten District, Ho Chi Minh, Viet Nam</p>
						<p class="contact">Tel: (84) 3832 9092</p>
						<p class="lat">10.776183</p>
						<p class="lng">106.680840</p>
					</div>
					<div class="shop">
						<h4>Galle Watch</h4>
						<p class="address">BigC Center, 202B Hoang Van Thu street, Phu Nhuan Distict, Ho Chi Minh, Viet Nam</p>
						<p class="contact">Tel: (84) 3997 3748</p>
						<p class="lat">10.801904</p>
						<p class="lng">106.669608</p>
					</div>
					<div class="shop">
						<h4>Galle Watch</h4>
						<p class="address">BigC Pandora, 1/1 Truong Chinh street, Tan Phu District, Ho Chi Minh, Viet Nam</p>
						<p class="contact">Tel: (84) 3842 9764</p>
						<p class="lat">10.765236</p>
						<p class="lng">106.672102</p>
					</div>
					<div class="shop">
						<h4>Galle Watch</h4>
						<p class="address">352 Le van Sy street, Fourteen Ward, Three District, Ho Chi Minh, Viet Nam</p>
						<p class="contact">Tel: (84) 6290 4132</p>
						<p class="lat">10.787835</p>
						<p class="lng">106.677552</p>
					</div>
					<div class="shop">
						<h4>Galle Watch</h4>
						<p class="address">129, 15-17 Cong Hoa street, Four Ward, Ho Chi Minh, Viet Nam</p>
						<p class="contact">Tel: (84) 3948 3307</p>
						<p class="lat">10.769643</p>
						<p class="lng">106.689252</p>
					</div>
					<div class="shop">
						<h4>Galle Watch</h4>
						<p class="address">717 Cach mang Thang Tam Street, Six Ward, Tan Binh District, Ho Chi Minh, Viet Nam</p>
						<p class="contact">Tel: (84) 6297 2138</p>
						<p class="lat">10.780106</p>
						<p class="lng">106.677576</p>
					</div>
					<div class="shop">
                        <h4>Galle Watch</h4>
                        <p class="address">L1-K3 TTTM Vincom Center Thu Duc, 216 Vo Van Ngan, P Binh Tho, Q Thu Duc, TP Ho Chi Minh</p>
                        <p class="contact">Tel: (84) 3722 5262</p>
                        <p class="contact">Tel: (84) 3722 5263</p>
                        <p class="lat">10.850008</p>
                        <p class="lng">106.765278</p>
                    </div>
				</div>
			</div>
			<div class="country" title="Korea">
				<div class="city" title="Gyeonggi-do">
					<div class="shop">
						<h4>TBOSS CORPORATION (TBOSS Corp.)</h4>
						<p class="address">2F, O-RYONG Bldg., 625-4, E-dong, Sangrok-gu, Ansan-si, Gyeonggi-do, Korea</p>
						<p class="contact">Tel: (82) 1661 5705</p>
						<p class="contact">Fax: (82) 505 977 9997</p>
						<p class="lat">37.314978</p>
						<p class="lng">126.844512</p>
					</div>
				</div>
			</div>
			<div class="country" title="Myanmar">
				<div class="city" title="Yangon">
					<div class="shop">
						<h4>Tin Sein Watch Gallery</h4>
						<p class="address">No.89, U Chit Mg Stree, Bahan Township Yangon</p>
						<p class="contact">Tel: (95) 165 1386</p>
						<p class="contact">Fax: (82) 165 1386</p>
						<p class="lat">16.859214</p>
						<p class="lng">96.122336</p>
					</div>
				</div>
			</div>
			<div class="country" title="Indonesia">
				<div class="city" title="Pekanbaru">
					<div class="shop" >
						<h4>Verona Exclusive Fashion</h4>
						<p class="address">Jl. Jend Ahmad Yani, No. 2H-21 Pekanbaru, Indonesia</p>
						<p class="contact">Tel: (62) 0761855561</p>
						<p class="lat">0.527729</p>
						<p class="lng">101.442478</p>
					</div>
				</div>
			</div>
		</div>

		<div class="region" title="欧州">
			<div class="country" title="Switzerland">
				<div class="city" title="Le Noirmont">
					<div class="shop">
						<h4>Ernest Borel SA</h4>
						<p class="address">Rue des Perrières 8, 2340 Le Noirmont, Switzerland</p>
						<p class="contact">+41 32 926 17 26</p>
		                <p class="contact">Email: info@ernestborel.ch</p>
		                <p class="contact">Web: www.ernestborel.ch</p>
						<p class="lat">47.224169</p>
						<p class="lng">6.955173</p>
					</div>					
				</div>				
            </div>
            <div class="country" title="Northern Ireland">
				<div class="city" title="Belfast - Belfast">
					<div class="shop">
						<h4>Gardiner Brothers Limited</h4>
						<p class="address">44-46 Waring Street, BT1 2ED Belfast, Northern Ireland</p>
						<p class="contact">+44 28 9023 42 71</p>
		                <p class="contact">Email: info@ernestborel.ch</p>
		                <p class="contact">Web: www.ernestborel.ch</p>
						<p class="lat">47.224169</p>
						<p class="lng">6.955173</p>
					</div>					
				</div>				
            </div>
            <div class="country" title="The Netherlands">
				<div class="city" title="AN Amsterdam">
					<div class="shop">
						<h4>HQ-Time</h4>
						<p class="address">P.O. Box 75590, 1070 Amsterdam, The Netherlands</p>
						<p class="contact">+31 65 589 0504</p>
		                <p class="contact">Email: info@hq-time.com</p>
		                <p class="contact">Web: www.hq-time.com</p>
						<p class="lat"></p>
						<p class="lng"></p>
					</div>					
				</div>				
            </div>
            <div class="country" title="Belgium">
				<div class="city" title="AN Amsterdam">
					<div class="shop">
						<h4>HQ-Time</h4>
						<p class="address">P.O. Box 75590, 1070 Amsterdam, The Netherlands</p>
						<p class="contact">+31 65 589 0504</p>
		                <p class="contact">Email: info@hq-time.com</p>
		                <p class="contact">Web: www.hq-time.com</p>
						<p class="lat"></p>
						<p class="lng"></p>
					</div>					
				</div>				
            </div>
            <div class="country" title="Luxembourg">
				<div class="city" title="AN Amsterdam">
					<div class="shop">
						<h4>HQ-Time</h4>
						<p class="address">P.O. Box 75590, 1070 Amsterdam, The Netherlands</p>
						<p class="contact">+31 65 589 0504</p>
		                <p class="contact">Email: info@hq-time.com</p>
		                <p class="contact">Web: www.hq-time.com</p>
						<p class="lat"></p>
						<p class="lng"></p>
					</div>					
				</div>				
            </div>
            <div class="country" title="Bulgaria">
				<div class="city" title="Sofia">
					<div class="shop">
						<h4>Juliany</h4>
						<p class="address">70 Rakovski, Sofia, Bulgaria</p>
						<p class="contact">+359 (0)2 980 6310</p>
		                <p class="contact">Email: office@julliany.com</p>
		                <p class="contact">Web: www.julliany.com</p>
						<p class="lat">42.699370</p>
						<p class="lng">23.329430</p>
					</div>					
				</div>				
            </div>
            <div class="country" title="Spain">
				<div class="city" title="Barcelona">
					<div class="shop">
						<h4>Luxus</h4>
						<p class="address">Passeig de Gracia 118, Principal, 8008 Barcelona, Spain</p>
						<p class="contact">+932 553 104</p>
		                <p class="contact">Email: f.battle@luxus-fb.com</p>
						<p class="lat">41.397342</p>
						<p class="lng">2.158986</p>
					</div>					
				</div>				
            </div>
            <div class="country" title="Hungary">
				<div class="city" title="Budapest">
					<div class="shop">
						<h4>Swiss-Time Ltd.</h4>
						<p class="address">Jàsz u. 83-87, 1135 Budapest, Hungary</p>
						<p class="contact">+36 1 330 51 49</p>
		                <p class="contact">Email: info@swisstime.hu</p>
						<p class="lat">47.535305</p>
						<p class="lng">19.086176</p>
					</div>					
				</div>				
            </div>            
            <div class="country" title="France">
				<div class="city" title="Levallois Perret">
					<div class="shop">
						<h4>Tendance 2 Luxe</h4>
						<p class="address">110 Boulevard du President Wilson, 92300 Levallois Perret, France</p>
						<p class="contact">+33 6 41941281</p>
		                <p class="contact">Email: contact@tendances2luxe.com</p>
						<p class="lat">48.896695</p>
						<p class="lng">2.286597</p>
					</div>					
				</div>				
            </div>            
            <div class="country" title="Germany">
				<div class="city" title="Madrid">
					<div class="shop">
						<h4>Time Square Development</h4>
						<p class="address">C/ Ligonde 3, Pl, 2°B, 28050 Madrid, Spain</p>
						<p class="contact">+34 659 633 407</p>
		                <p class="contact">Email: bezos@timesqd.com</p>
						<p class="lat"></p>
						<p class="lng"></p>
					</div>					
				</div>				
            </div>            
            <div class="country" title="Sweden">
				<div class="city" title="Madrid">
					<div class="shop">
						<h4>Time Square Development</h4>
						<p class="address">C/ Ligonde 3, Pl, 2°B, 28050 Madrid, Spain</p>
						<p class="contact">+34 659 633 407</p>
		                <p class="contact">Email: bezos@timesqd.com</p>
						<p class="lat"></p>
						<p class="lng"></p>
					</div>					
				</div>				
            </div>            
            <div class="country" title="Ukraine">
				<div class="city" title="Kiev">
					<div class="shop">
						<h4>Veltim Technokom</h4>
						<p class="address">Str. Turgenevskaya, 25 of #15, 4050 Kiev, Ukraine</p>
						<p class="contact"></p>
		                <p class="contact">Email: andrew_hit15@yahoo.com</p>
						<p class="lat">50.452081</p>
						<p class="lng">30.491094</p>
					</div>					
				</div>				
            </div>
		</div>

		<div class="region" title="Middle East">
			<div class="country" title="UAE, Qatar, Iran, Kuwait, Oman, Saudi arabia">
				<div class="city" title="Dubai">
					<div class="shop">
						<h4>Enjoy Bijoux Dubai</h4>
						<p class="address">Dubai Airport Free Zone, East Wing 2E 209, PO BOX 54487</p>
						<p class="contact">Tel: +971 4 299 6500</p>
						<p class="contact">Email: office@enjoybijouxdubai.com</p>
						<p class="contact">web: www.enjoyyourbrands.com</p>
						<p class="lat">25.260765</p>
						<p class="lng">55.374983</p>
					</div>
				</div>
			</div>
			<!-- <div class="country" title="Qatar">
				<div class="city" title="Dubai">
					<div class="shop">
						<h4>Enjoy Bijoux Dubai</h4>
						<p class="address">Dubai Airport Free Zone, East Wing 2E 209, PO BOX 54487</p>
						<p class="contact">Tel: +971 4 299 6500</p>
						<p class="contact">Email: office@enjoybijouxdubai.com</p>
						<p class="contact">web: www.enjoyyourbrands.com</p>
						<p class="lat">25.260765</p>
						<p class="lng">55.374983</p>
					</div>
				</div>
			</div>
			<div class="country" title="Iran">
				<div class="city" title="Dubai">
					<div class="shop">
						<h4>Enjoy Bijoux Dubai</h4>
						<p class="address">Dubai Airport Free Zone, East Wing 2E 209, PO BOX 54487</p>
						<p class="contact">Tel: +971 4 299 6500</p>
						<p class="contact">Email: office@enjoybijouxdubai.com</p>
						<p class="contact">web: www.enjoyyourbrands.com</p>
						<p class="lat">25.260765</p>
						<p class="lng">55.374983</p>
					</div>
				</div>
			</div>
			<div class="country" title="Kuwait">
				<div class="city" title="Dubai">
					<div class="shop">
						<h4>Enjoy Bijoux Dubai</h4>
						<p class="address">Dubai Airport Free Zone, East Wing 2E 209, PO BOX 54487</p>
						<p class="contact">Tel: +971 4 299 6500</p>
						<p class="contact">Email: office@enjoybijouxdubai.com</p>
						<p class="contact">web: www.enjoyyourbrands.com</p>
						<p class="lat">25.260765</p>
						<p class="lng">55.374983</p>
					</div>
				</div>
			</div>
			<div class="country" title="Oman">
				<div class="city" title="Dubai">
					<div class="shop">
						<h4>Enjoy Bijoux Dubai</h4>
						<p class="address">Dubai Airport Free Zone, East Wing 2E 209, PO BOX 54487</p>
						<p class="contact">Tel: +971 4 299 6500</p>
						<p class="contact">Email: office@enjoybijouxdubai.com</p>
						<p class="contact">web: www.enjoyyourbrands.com</p>
						<p class="lat">25.260765</p>
						<p class="lng">55.374983</p>
					</div>
				</div>
			</div>
			<div class="country" title="Saudi arabia">
				<div class="city" title="Dubai">
					<div class="shop">
						<h4>Enjoy Bijoux Dubai</h4>
						<p class="address">Dubai Airport Free Zone, East Wing 2E 209, PO BOX 54487</p>
						<p class="contact">Tel: +971 4 299 6500</p>
						<p class="contact">Email: office@enjoybijouxdubai.com</p>
						<p class="contact">web: www.enjoyyourbrands.com</p>
						<p class="lat">25.260765</p>
						<p class="lng">55.374983</p>
					</div>
				</div>
			</div> -->
		</div>

		<div class="region" title="北米">
			<div class="country" title="Canada">
				<div class="city" title="Montreal, Quebec">
					<div class="shop">
						<h4>Valangin Inc.</h4>
						<p class="address">1435 Rue Saint-Alexandre, H3A 2G4 Montreal, Quebec, Canada</p>
						<p class="contact">Tel: +1 514 845 2259</p>
						<p class="contact">Email: admin@valangin.com</p>
						<p class="contact">Web: http://www.valangin.com/</p>
						<p class="lat">50.452081</p>
						<p class="lng">30.491094</p>
					</div>
				</div>
			</div>
			<div class="country" title="米国">
				<div class="city" title="Montreal, Quebec">
					<div class="shop">
						<h4>Valangin Inc.</h4>
						<p class="address">1435 Rue Saint-Alexandre, H3A 2G4 Montreal, Quebec, Canada</p>
						<p class="contact">Tel: +1 514 845 2259</p>
						<p class="contact">Email: admin@valangin.com</p>
						<p class="contact">Web: http://www.valangin.com/</p>
						<p class="lat">50.452081</p>
						<p class="lng">30.491094</p>
					</div>
				</div>
			</div>
		</div>

		<div class="region" title="Oceania">
			<div class="country" title="Australia">
				<div class="city" title="Glen Huntly, VIC">
					<div class="shop">
						<h4>Lion Brands</h4>
						<p class="address">1068-1070 Glenhuntly Rd, 3163 Glen Huntly, VIC, Australia</p>
						<p class="contact">Tel: +61 4 0913 8607</p>
						<p class="contact">Email: service@lionbrandsaustralia.com.au</p>
						<p class="contact">Web: www.lionbrandsaustralia.com.au</p>
						<p class="lat">-37.889157</p>
						<p class="lng">145.037981</p>
					</div>
				</div>
			</div>
		</div>
	</active>
	<inactive>
		<div class="country" title="Malaysia">
			<div class="city" title="Malaysia">
				<div class="shop">
					<h4>All Watches Times Square</h4>
					<p class="address">Berjaya Times Square #01-63, No.1 Jalan Imbi 55100 Kuala Lumpur</p>
					<p class="contact">Tel: (603) 2142 8128</p>
					<p class="lat">3.142661</p>
					<p class="lng">101.710397</p>
				</div>
			</div>
				<div>
					<div class="shop">
						<h4>珠海百貨広場ブランド時計城周玉賛ブランド時計修理センター</h4>
						<p class="address">珠海市吉大景山路百貨広場二階</p>
						<p class="contact">Tel: (86-756) 335 0570</p>
					</div>
				</div>
		</div>
				
		<div class="region" title="亜細亜">
			<div class="country" title="中国">
				<div class="city" title="Neimenggu">
					<div class="shop">
						<h4>Hohhot Weiduoli Mall Clock &amp; Watch Center</h4>
						<p class="address">No.39 Zhongshan Road West Hohhot</p>
						<p class="contact">Tel: (86-471) 226 3319</p>
					</div>
					<div class="shop">
						<h4>Baotou Wangfujing Department Store Co. Ltd.</h4>
						<p class="address">No.71 Gangtie Street Baotou City</p>
						<p class="contact">Tel: (86-472) 251 3343</p>
					</div>
					<div class="shop">
						<h4>Brand Watch 1/F，Lantian Building Shenhua International City Baot</h4>
						<p class="address">No.1 Aerding Street Kun District Baotou</p>
						<p class="contact">Tel: (86-472) 536 8860</p>
					</div>
					<div class="shop">
						<h4>Ordos Aiguo Brand Watch Store</h4>
						<p class="address">No.3 Yijinhuoluo Street East Ordos City</p>
						<p class="contact">Tel: (86-477) 399 9022</p>
					</div>
				</div>

				<div class="city" title="Beijing">
					<div class="shop">
						<h4>Beijing Landao Building Department Store</h4>
						<p class="address">A8 Chaowai Street, ChaoYang District, Beijing, China.</p>
						<p class="contact">電話番號: (86-10) 5821 4031</p>
					</div>
					<div class="shop">
						<h4>Beijing Wangfujing Danyao Hendry Watches Store</h4>
						<p class="address">Dangyao Building, No. 176 Wangfujing Street, East Area Beijing City, China.</p>
						<p class="contact">電話番号: (86-10) 6528 6155</p>
					</div>
				</div>
			</div>
		</div>

		<div class="region" title="北米">
		</div>

		<div class="region" title="欧州">
			<div class="country" title="Switzerland">
				<div class="city" title="Switzerland">
					<div class="shop">
						<h4>Ernest Borel S.A.</h4>
						<p class="address">Case postale 234 rue des Perrieres 8 CH-2340 Le Noirmont Switzerland</p>
						<p class="contact">Tel: +41 (0)32 926 17 26 Fax: (0041)(32)9261 729<br />Web: www.ernestborel.ch Email: info@ernestborel.ch</p>
					</div>
					<div class="shop">
						<h4>Juwelia Watches Souvenirs</h4>
						<p class="address">Denkmalstrasse 1-3 CH6006 Luzern Switzerland</p>
						<p class="contact">Tel: +41 (0)41 410 53 29 Fax: (041)410 61 19</p>
					</div>
				</div>
			</div>

			<div class="country" title="Russia">
				<div class="city" title="Russia">
					<div class="shop">
						<h4>Fregat LTD</h4>
						<p class="address">Electrodnaya st. 2, 20 111141 Moscow Russia</p>
						<p class="contact">Tel: +7 495 637 96 06 Email: nadin@fregat-ltd.ru</p>
					</div>
				</div>
			</div>
		</div>

		<div class="region" title="中東">
		</div>
	</inactive>
</data>
